{"type":"FeatureCollection","features":[{"type":"Feature","properties":{},"geometry":{"type":"Polygon","coordinates":[[[77.48039245605469,13.053392453653448],[77.47215270996094,12.963074139604124],[77.50991821289062,12.86335142951402],[77.67814636230469,12.841929289611192],[77.76809692382811,12.944337340144848],[77.75711059570311,13.026300414486952],[77.60913848876952,13.1155925540513],[77.48039245605469,13.053392453653448]]]}},{"type":"Feature","properties":{"marker-color":"#7e7e7e","marker-size":"medium","marker-symbol":"","locality":"Hosa Road"},"geometry":{"type":"Point","coordinates":[77.65340030193329,12.86983628714292]}},{"type":"Feature","properties":{"marker-color":"#7e7e7e","marker-size":"medium","marker-symbol":"","locality":"Madiwala"},"geometry":{"type":"Point","coordinates":[77.62029647827147,12.921165332581365]}},{"type":"Feature","properties":{"marker-color":"#7e7e7e","marker-size":"medium","marker-symbol":"","locality":"Whitefield"},"geometry":{"type":"Point","coordinates":[77.75002956390381,12.971312866255127]}},{"type":"Feature","properties":{"marker-color":"#7e7e7e","marker-size":"medium","marker-symbol":"","locality":"Varthur"},"geometry":{"type":"Point","coordinates":[77.74560928344727,12.937143373220621]}},{"type":"Feature","properties":{"marker-color":"#7e7e7e","marker-size":"medium","marker-symbol":"","locality":"Marathahali"},"geometry":{"type":"Point","coordinates":[77.7004623413086,12.956382587313202]}},{"type":"Feature","properties":{"marker-color":"#7e7e7e","marker-size":"medium","marker-symbol":"","locality":"K.R.Puram"},"geometry":{"type":"Point","coordinates":[77.69205093383789,13.00857192009273]}},{"type":"Feature","properties":{},"geometry":{"type":"Point","coordinates":[77.5990104675293,12.961903130936516]}},{"type":"Feature","properties":{"marker-color":"#7e7e7e","marker-size":"medium","marker-symbol":"","locality":"Nice Road West"},"geometry":{"type":"Point","coordinates":[77.53262042999268,12.93982022236821]}},{"type":"Feature","properties":{"marker-color":"#7e7e7e","marker-size":"medium","marker-symbol":"","locality":"Tumkur"},"geometry":{"type":"Point","coordinates":[77.5389289855957,13.029812512820753]}},{"type":"Feature","properties":{"marker-color":"#7e7e7e","marker-size":"medium","marker-symbol":"","locality":"Hebbal"},"geometry":{"type":"Point","coordinates":[77.59008407592773,13.043358711035388]}},{"type":"Feature","properties":{"marker-color":"#7e7e7e","marker-size":"medium","marker-symbol":"","locality":"Yelahanka"},"geometry":{"type":"Point","coordinates":[77.59952545166016,13.100211194785802]}},{"type":"Feature","properties":{"marker-color":"#7e7e7e","marker-size":"medium","marker-symbol":"","locality":"Hennur"},"geometry":{"type":"Point","coordinates":[77.63385772705078,13.02763836258297]}},{"type":"Feature","properties":{"marker-color":"#7e7e7e","marker-size":"medium","marker-symbol":"","locality":"CV Raman Nagar"},"geometry":{"type":"Point","coordinates":[77.66248226165771,12.985656799993347]}},{"type":"Feature","properties":{"marker-color":"#7e7e7e","marker-size":"medium","marker-symbol":"","locality":"Bellandur"},"geometry":{"type":"Point","coordinates":[77.67763137817383,12.926268378194083]}},{"type":"Feature","properties":{"marker-color":"#7e7e7e","marker-size":"medium","marker-symbol":"","locality":"Magadi Rd"},"geometry":{"type":"Point","coordinates":[77.51970291137695,12.987183146542987]}},{"type":"Feature","properties":{"marker-color":"#7e7e7e","marker-size":"medium","marker-symbol":"","locality":"JP Nagar"},"geometry":{"type":"Point","coordinates":[77.57313251495361,12.906524869083215]}},{"type":"Feature","properties":{"marker-color":"#7e7e7e","marker-size":"medium","marker-symbol":"","locality":"Fraser Town"},"geometry":{"type":"Point","coordinates":[77.6129150390625,12.997616414911112]}}]}